Rank,Name,Long,Lat,City,Country,Total_Passengers_millions,Image_URL,Thumb_URL
1,Tokyo,-84.427928,33.64104,Atlanta,Japan,95.46,http://upload.wikimedia.org/wikipedia/commons/thumb/b/bb/Delta_check_in_at_ATL.jpg/800px-Delta_check_in_at_ATL.jpg,http://upload.wikimedia.org/wikipedia/commons/thumb/b/bb/Delta_check_in_at_ATL.jpg/220px-Delta_check_in_at_ATL.jpg
2,Hong Kong,116.607693,40.066212,Beijing,China,81.93,http://upload.wikimedia.org/wikipedia/commons/thumb/1/13/VM_Beijing_Airport_-_hallways_4350.jpg/800px-VM_Beijing_Airport_-_hallways_4350.jpg,
3,Kuala Lumpur,-0.464417,51.471826,London,Malaysia,70.04,http://upload.wikimedia.org/wikipedia/commons/thumb/2/29/Heathrow_T5.jpg/800px-Heathrow_T5.jpg,http://upload.wikimedia.org/wikipedia/commons/thumb/2/29/Heathrow_T5.jpg/280px-Heathrow_T5.jpg
4,Port Louis,139.786083,35.550327,Tokyo,Mauritius,67.79,http://upload.wikimedia.org/wikipedia/commons/thumb/8/80/HND_Airport_Office_Building_1.jpg/800px-HND_Airport_Office_Building_1.jpg,http://upload.wikimedia.org/wikipedia/commons/thumb/8/80/HND_Airport_Office_Building_1.jpg/280px-HND_Airport_Office_Building_1.jpg
5,Saint Denis,-87.90348,41.978498,Chicago,France,67.09,http://upload.wikimedia.org/wikipedia/commons/thumb/a/ac/O%27Hare_Terminal_1.jpg/800px-O%27Hare_Terminal_1.jpg,http://upload.wikimedia.org/wikipedia/commons/thumb/a/ac/O%27Hare_Terminal_1.jpg/250px-O%27Hare_Terminal_1.jpg
