Step,Name,Long,Lat,City,Country,Image_URL,Thumb_URL
1,Tokyo,140.392812,35.771987,Tokyo,Japan,http://upload.wikimedia.org/wikipedia/commons/thumb/b/bb/Delta_check_in_at_ATL.jpg/800px-Delta_check_in_at_ATL.jpg,http://upload.wikimedia.org/wikipedia/commons/thumb/b/bb/Delta_check_in_at_ATL.jpg/220px-Delta_check_in_at_ATL.jpg
2,Hong Kong,113.91854,22.308087,Hong Kong,China,http://upload.wikimedia.org/wikipedia/commons/thumb/1/13/VM_Beijing_Airport_-_hallways_4350.jpg/800px-VM_Beijing_Airport_-_hallways_4350.jpg,http://upload.wikimedia.org/wikipedia/commons/thumb/1/13/VM_Beijing_Airport_-_hallways_4350.jpg/800px-VM_Beijing_Airport_-_hallways_4350.jpg
3,Kuala Lumpur,101.701163,2.754472,Kuala Lumpur,Malaysia,http://upload.wikimedia.org/wikipedia/commons/thumb/2/29/Heathrow_T5.jpg/800px-Heathrow_T5.jpg,http://upload.wikimedia.org/wikipedia/commons/thumb/2/29/Heathrow_T5.jpg/280px-Heathrow_T5.jpg
4,Plaisance,57.674913,-20.430592,Plaisance,Mauritius,http://upload.wikimedia.org/wikipedia/commons/thumb/8/80/HND_Airport_Office_Building_1.jpg/800px-HND_Airport_Office_Building_1.jpg,http://upload.wikimedia.org/wikipedia/commons/thumb/8/80/HND_Airport_Office_Building_1.jpg/280px-HND_Airport_Office_Building_1.jpg
5,Saint Denis,55.517784,-20.891404,Saint Denis,France,http://upload.wikimedia.org/wikipedia/commons/thumb/a/ac/O%27Hare_Terminal_1.jpg/800px-O%27Hare_Terminal_1.jpg,http://upload.wikimedia.org/wikipedia/commons/thumb/a/ac/O%27Hare_Terminal_1.jpg/250px-O%27Hare_Terminal_1.jpg
